[{"Name":"Homyel'skaya voblasts' (be) Gomel'skaya oblast' (ru)","Names":["Gomel","Gomelskaja Oblastʿ","Gomelskaya Oblastʿ","Gomelʿ","Homelskaja Voblastsʿ","Homelskaya Voblastsʿ","Homiel","Homyel"],"Code":"HO","CountryAlpha2":"BY","longitude":"","latitude":"","MinLongitude":27.2441409,"MinLatitude":51.2620722,"MaxLongitude":31.7992701,"MaxLatitude":53.3679551,"Latitude":52.1648754,"Longitude":29.1333251},{"Name":"Hrodzenskaya voblasts' (be) Grodnenskaya oblast' (ru)","Names":["Gardinas","Grodnenskaja Oblastʿ","Grodnenskaya Oblastʿ","Grodno","Horadnia","Hrodno","Hrodzenskaja Voblastsʿ","Hrodzenskaya Voblastsʿ"],"Code":"HR","CountryAlpha2":"BY","longitude":"","latitude":"","MinLongitude":0,"MinLatitude":0,"MaxLongitude":0,"MaxLatitude":0,"Latitude":0,"Longitude":0},{"Name":"Mahilyowskaya voblasts' (be) Mogilevskaya oblast' (ru)","Names":["Mahiljov","Mahiljowskaja Voblastsʿ","Mahilyov","Mahilyowskaya Voblastsʿ","Mahilëv","Mahilëŭ","Mogilev","Mogiliov","Mogiljovskaja Oblastʿ","Mogilov","Mogilyovskaya Oblast","Mogilëv","Mogilʿov"],"Code":"MA","CountryAlpha2":"BY","longitude":"","latitude":"","MinLongitude":0,"MinLatitude":0,"MaxLongitude":0,"MaxLatitude":0,"Latitude":0,"Longitude":0},{"Name":"Minskaya voblasts' (be) Minskaya oblast' (ru)","Names":["Minskaja Oblastʿ","Minskaya Oblastʿ","Minskaya Voblastsʿ"],"Code":"MI","CountryAlpha2":"BY","longitude":"","latitude":"","MinLongitude":26.06101,"MinLatitude":52.37261179999999,"MaxLongitude":29.487841,"MaxLatitude":55.017477,"Latitude":53.4718561,"Longitude":27.6969909},{"Name":"Vitsyebskaya voblasts' (be) Vitebskaya oblast' (ru)","Names":["Vicebskaja Voblastsʿ","Vicebskaya Voblastsʿ","Viciebsk","Vicjebsk","Vitebsk","Vitebskaja Oblastʿ","Vitebskaya Oblastʿ","Vitsyebsk"],"Code":"VI","CountryAlpha2":"BY","longitude":"","latitude":"","MinLongitude":0,"MinLatitude":0,"MaxLongitude":0,"MaxLatitude":0,"Latitude":0,"Longitude":0},{"Name":"Horad Minsk","Names":["Gorod Minsk","Horad Minsk","Mensk"],"Code":"X1~","CountryAlpha2":"BY","longitude":"","latitude":"","MinLongitude":27.5486845,"MinLatitude":53.9003892,"MaxLongitude":27.5616665,"MaxLatitude":53.9069628,"Latitude":53.9029742,"Longitude":27.5549986},{"Name":"Brestskaya voblasts' (be) Brestskaya oblast' (ru)","Names":["Bierascie","Brest-Litovsk","Brestskaja Oblastʿ","Brestskaja Voblastsʿ","Brestskaya Oblastʿ","Brestskaya Voblastsʿ","Brisk","Brześć nad Bugiem","Brześć-Litewski"],"Code":"BR","CountryAlpha2":"BY","longitude":"","latitude":"","MinLongitude":23.1783377,"MinLatitude":51.4980539,"MaxLongitude":27.5825019,"MaxLatitude":53.4118989,"Latitude":52.5296641,"Longitude":25.460648}]