[{"Name":"Al Mafraq","Names":["Mafraq"],"Code":"MA","CountryAlpha2":"JO","longitude":"","latitude":"","MinLongitude":0,"MinLatitude":0,"MaxLongitude":0,"MaxLatitude":0,"Latitude":32.3616821,"Longitude":36.2193362},{"Name":"Madaba","Names":["Madaba","Maʿdaba","Maʿdabâ"],"Code":"MD","CountryAlpha2":"JO","longitude":"","latitude":"","MinLongitude":0,"MinLatitude":0,"MaxLongitude":0,"MaxLatitude":0,"Latitude":31.71954,"Longitude":35.794109},{"Name":"Ajlun","Names":["Ajloan","Ajlun"],"Code":"AJ","CountryAlpha2":"JO","longitude":"","latitude":"","MinLongitude":35.606699,"MinLatitude":32.158034,"MaxLongitude":35.904965,"MaxLatitude":32.40349,"Latitude":32.2561926,"Longitude":35.6969984},{"Name":"Amman","Names":["Amman"],"Code":"AM","CountryAlpha2":"JO","longitude":"","latitude":"","MinLongitude":0,"MinLatitude":0,"MaxLongitude":0,"MaxLatitude":0,"Latitude":31.9565783,"Longitude":35.9456951},{"Name":"Aqaba","Names":["Akaba","Aqaba","Aqqaba","al-Aqaba"],"Code":"AQ","CountryAlpha2":"JO","longitude":"","latitude":"","MinLongitude":0,"MinLatitude":0,"MaxLongitude":0,"MaxLatitude":0,"Latitude":29.5319199,"Longitude":35.0060842},{"Name":"At Tafilah","Names":["Tafiela","Tafileh","at-Tafilah"],"Code":"AT","CountryAlpha2":"JO","longitude":"","latitude":"","MinLongitude":0,"MinLatitude":0,"MaxLongitude":0,"MaxLatitude":0,"Latitude":30.83583299999999,"Longitude":35.612222},{"Name":"Al Balqa'","Names":["Al Balqa'"],"Code":"BA","CountryAlpha2":"JO","longitude":"","latitude":"","MinLongitude":35.519307,"MinLatitude":31.6735621,"MaxLongitude":35.934166,"MaxLatitude":32.183978,"Latitude":31.9676039,"Longitude":35.6095474},{"Name":"Irbid","Names":["Irbit"],"Code":"IR","CountryAlpha2":"JO","longitude":"","latitude":"","MinLongitude":0,"MinLatitude":0,"MaxLongitude":0,"MaxLatitude":0,"Latitude":32.5454418,"Longitude":35.8571532},{"Name":"Ma`an","Names":["Maan","Maʿan"],"Code":"MN","CountryAlpha2":"JO","longitude":"","latitude":"","MinLongitude":0,"MinLatitude":0,"MaxLongitude":0,"MaxLatitude":0,"Latitude":30.1949577,"Longitude":35.7342418},{"Name":"Az Zarqa'","Names":["Zarka","Zarqa","Zerka"],"Code":"AZ","CountryAlpha2":"JO","longitude":"","latitude":"","MinLongitude":35.8889939,"MinLatitude":31.49364899999999,"MaxLongitude":37.780864,"MaxLatitude":32.196324,"Latitude":31.7515118,"Longitude":36.8680791},{"Name":"Jarash","Names":["Jarash","Jerash"],"Code":"JA","CountryAlpha2":"JO","longitude":"","latitude":"","MinLongitude":0,"MinLatitude":0,"MaxLongitude":0,"MaxLatitude":0,"Latitude":32.2769016,"Longitude":35.9055502},{"Name":"Al Karak","Names":["Karak","Kerak"],"Code":"KA","CountryAlpha2":"JO","longitude":"","latitude":"","MinLongitude":0,"MinLatitude":0,"MaxLongitude":0,"MaxLatitude":0,"Latitude":31.1648059,"Longitude":35.7618824}]